{
  "93004": {
    "name": "Cape Reinga",
    "lat": "-34.4266361",
    "lng": "172.6774565"
  },
  "93023": { "name": "Purerua", "lat": "-35.1551344", "lng": "174.0351269" },
  "93034": { "name": "Kaikohe", "lat": "-35.4069776", "lng": "173.8048386" },
  "93069": { "name": "Mokohinau", "lat": "-35.8740148", "lng": "174.4617269" },
  "93103": {
    "name": "Whangaparaoa",
    "lat": "-37.5744059",
    "lng": "177.9997119"
  },
  "93110": {
    "name": "Auckland Airport",
    "lat": "-37.00889695",
    "lng": "174.791245093728"
  },
  "93129": {
    "name": "Whitianga Airport",
    "lat": "-36.8315964",
    "lng": "175.6757501"
  },
  "93146": { "name": "Paeroa", "lat": "-37.3747613", "lng": "175.6750558" },
  "93173": {
    "name": "Hamilton Airport",
    "lat": "-37.6486646",
    "lng": "142.0607061"
  },
  "93186": {
    "name": "Tauranga Airport",
    "lat": "-37.67274585",
    "lng": "176.198681141545"
  },
  "93196": { "name": "Hicks Bay", "lat": "-37.5913283", "lng": "178.2900625" },
  "93201": { "name": "Port Taharoa", "lat": 0, "lng": 0 },
  "93245": {
    "name": "Taupo Airport",
    "lat": "-38.7401905",
    "lng": "176.084424905865"
  },
  "93292": {
    "name": "Gisborne Airport",
    "lat": "-38.6639081",
    "lng": "177.978286886614"
  },
  "93309": {
    "name": "New Plymouth Airport",
    "lat": "-39.0059852",
    "lng": "174.183211019734"
  },
  "93313": { "name": "Hawera", "lat": "-42.196574", "lng": "171.4640536" },
  "93339": { "name": "Waiouru", "lat": "-39.4772125", "lng": "175.6697752" },
  "93373": {
    "name": "Napier Airport",
    "lat": "35.44716945",
    "lng": "-87.5043589105263"
  },
  "93393": { "name": "Mahia", "lat": "9.3046738", "lng": "-11.9704008" },
  "93404": { "name": "Palmerston Nth Airport", "lat": 0, "lng": 0 },
  "93410": { "name": "Levin", "lat": "-40.6218161", "lng": "175.2865854" },
  "93420": {
    "name": "Paraparaumu Airport",
    "lat": "-40.9046173",
    "lng": "174.986513098812"
  },
  "93439": {
    "name": "Wellington Airport",
    "lat": "-41.3294976",
    "lng": "174.8119641"
  },
  "93479": { "name": "Ngawi", "lat": "-7.4039881", "lng": "111.4452353" },
  "93498": { "name": "Castlepoint", "lat": "51.4940221", "lng": "-9.6214704" },
  "93515": {
    "name": "Westport Airport",
    "lat": "36.2211131",
    "lng": "-96.3468733"
  },
  "93527": {
    "name": "Farewell Spit",
    "lat": "-40.53114405",
    "lng": "172.97047059602"
  },
  "93546": {
    "name": "Nelson Airport",
    "lat": "-41.29691015",
    "lng": "173.225506996037"
  },
  "93586": {
    "name": "Brothers Island",
    "lat": "49.5361557",
    "lng": "-54.2741356"
  },
  "93597": {
    "name": "Cape Campbell",
    "lat": "-28.7972222",
    "lng": "23.7205556"
  },
  "93615": {
    "name": "Hokitika Airport",
    "lat": "-42.71319285",
    "lng": "170.9858256668"
  },
  "93678": { "name": "Kaikoura", "lat": "-42.4003723", "lng": "173.6803614" },
  "93709": { "name": "Haast", "lat": "-43.8800952", "lng": "169.0436257" },
  "93747": { "name": "Tara Hills", "lat": "37.9935337", "lng": "-122.3163591" },
  "93773": {
    "name": "Timaru Airport",
    "lat": "-44.29991735",
    "lng": "171.224517326124"
  },
  "93781": {
    "name": "Christchurch Airport",
    "lat": "-43.4876599",
    "lng": "172.541588"
  },
  "93792": {
    "name": "Le Bons Bay",
    "lat": "-43.75558525",
    "lng": "173.07812893585"
  },
  "93800": {
    "name": "Secretary Island",
    "lat": "46.0740395",
    "lng": "-82.2216568"
  },
  "93805": { "name": "Puysegur Point", "lat": "43.7775", "lng": "0.6058333" },
  "93831": {
    "name": "Queenstown Airport",
    "lat": "-42.07478155",
    "lng": "145.52564700738"
  },
  "93834": { "name": "Lumsden", "lat": "-45.7385616", "lng": "168.4424386" },
  "93845": {
    "name": "Invercargill Airport",
    "lat": "-46.41638",
    "lng": "168.324275404463"
  },
  "93887": {
    "name": "Nugget Point",
    "lat": "45.9074047",
    "lng": "-115.5742991"
  },
  "93891": {
    "name": "Dunedin Airport",
    "lat": "-45.92397755",
    "lng": "170.199728267439"
  },
  "93909": {
    "name": "South West Cape",
    "lat": "-43.5693342",
    "lng": "146.0321767"
  },
  "93929": {
    "name": "Enderby Island",
    "lat": "-20.59491465",
    "lng": "116.494894844028"
  },
  "93947": {
    "name": "Campbell Island",
    "lat": "-52.5374548",
    "lng": "169.178314861562"
  },
  "93987": {
    "name": "Chatham Island",
    "lat": "11.6878579",
    "lng": "92.7233064"
  },
  "93994": { "name": "Raoul Island", "lat": "-29.277762", "lng": "-177.949491" }
}
